[
    {
      "id": 1,
      "name": "Parque Central",
      "imageSrc": "https://images.pexels.com/photos/248280/pexels-photo-248280.jpeg",
      "imageAlt": "Vista del Parque Central.",
      "reach": "10k",
      "price": "Entrada gratuita",
      "color": "Verde",
      "coordinates": [-10.6037, -58.3816],
      "address": "Av. de Mayo 1234, CABA"
    },
    {
      "id": 2,
      "name": "Jardín Botánico",
      "href": "#",
      "imageSrc": "https://images.pexels.com/photos/1108595/pexels-photo-1108595.jpeg",
      "imageAlt": "Flores en el Jardín Botánico.",
      "reach": "10k",
      "price": "$10",
      "color": "Multicolor",
      "coordinates": [-24.5901, -58.4072],
      "address": "Av. Santa Fe 3951, CABA"
    },
    {
      "id": 3,
      "name": "Museo de Historia",
      "href": "#",
      "imageSrc": "https://images.pexels.com/photos/2595805/pexels-photo-2595805.jpeg",
      "imageAlt": "Fachada del Museo de Historia.",
      "reach": "10k",
      "price": "$5",
      "color": "Gris",
      "coordinates": [-44.6052, -58.3815],
      "address": "Av. del Libertador 2475, CABA"
    },
    {
      "id": 4,
      "name": "Playa del Sol",
      "href": "#",
      "imageSrc": "https://images.pexels.com/photos/3453335/pexels-photo-3453335.jpeg",
      "imageAlt": "Playa del Sol al atardecer.",
      "reach": "10k",
      "price": "Entrada gratuita",
      "color": "Azul",
      "coordinates": [-84.5725, -58.4454],
      "address": "Av. Costanera 1020, CABA"
    },
    {
      "id": 5,
      "name": "Parque Nacional",
      "href": "#",
      "imageSrc": "https://images.pexels.com/photos/1485772/pexels-photo-1485772.jpeg",
      "imageAlt": "Montañas en el Parque Nacional.",
      "reach": "10k",
      "price": "$20",
      "color": "Verde",
      "coordinates": [-4.6035, -58.3824],
      "address": "Parque Nacional Los Glaciares, CABA"
    },
    {
      "id": 6,
      "name": "Centro Cultural",
      "href": "#",
      "imageSrc": "https://images.pexels.com/photos/3738644/pexels-photo-3738644.jpeg",
      "imageAlt": "Eventos en el Centro Cultural.",
      "reach": "10k",
      "price": "$15",
      "color": "Beige",
      "coordinates": [-13.6050, -58.3828],
      "address": "Av. Corrientes 1530, CABA"
    },
    {
      "id": 7,
      "name": "Cascada de la Alegría",
      "href": "#",
      "imageSrc": "https://images.pexels.com/photos/733865/pexels-photo-733865.jpeg",
      "imageAlt": "Cascada en el Parque Natural.",
      "reach": "10k",
      "price": "Entrada gratuita",
      "color": "Azul",
      "coordinates": [-66.5900, -58.4000],
      "address": "Av. de los Lagos 3000, CABA"
    },
    {
      "id": 8,
      "name": "Zona Arqueológica",
      "href": "#",
      "imageSrc": "https://images.pexels.com/photos/1625246/pexels-photo-1625246.jpeg",
      "imageAlt": "Ruinas en la Zona Arqueológica.",
      "reach": "10k",
      "price": "$12",
      "color": "Terracota",
      "coordinates": [-9.6031, -58.3813],
      "address": "Av. Belgrano 890, CABA"
    },
    {
      "id": 9,
      "name": "Plaza Mayor",
      "href": "#",
      "imageSrc": "https://images.pexels.com/photos/1704125/pexels-photo-1704125.jpeg",
      "imageAlt": "Actividades en la Plaza Mayor.",
      "reach": "10k",
      "price": "Entrada gratuita",
      "color": "Gris",
      "coordinates": [-46.6033, -58.3816],
      "address": "Plaza de Mayo, CABA"
    },
    {
      "id": 10,
      "name": "Mirador del Cielo",
      "href": "#",
      "imageSrc": "https://images.pexels.com/photos/1600790/pexels-photo-1600790.jpeg",
      "imageAlt": "Vista panorámica desde el mirador.",
      "reach": "10k",
      "price": "$8",
      "color": "Azul",
      "coordinates": [-13.6100, -58.3840],
      "address": "Mirador Buenos Aires, CABA"
    },
    {
      "id": 11,
      "name": "Parque de Atracciones",
      "href": "#",
      "imageSrc": "https://images.pexels.com/photos/1588606/pexels-photo-1588606.jpeg",
      "imageAlt": "Diversión en el Parque de Atracciones.",
      "reach": "10k",
      "price": "$30",
      "color": "Multicolor",
      "coordinates": [-42.6150, -58.3800],
      "address": "Av. Rivadavia 1234, CABA"
    },
    {
      "id": 12,
      "name": "Bosque Encantado",
      "href": "#",
      "imageSrc": "https://images.pexels.com/photos/1603074/pexels-photo-1603074.jpeg",
      "imageAlt": "Senderos en el Bosque Encantado.",
      "reach": "10k",
      "price": "Entrada gratuita",
      "color": "Verde",
      "coordinates": [-19.6055, -58.3790],
      "address": "Bosque de Palermo, CABA"
    },
    {
      "id": 13,
      "name": "Acantilados del Océano",
      "href": "#",
      "imageSrc": "https://images.pexels.com/photos/2863534/pexels-photo-2863534.jpeg",
      "imageAlt": "Acantilados sobre el océano.",
      "reach": "10k",
      "price": "$10",
      "color": "Azul",
      "coordinates": [-59.6050, -58.3860],
      "address": "Av. Costanera Sur 2500, CABA"
    },
    {
      "id": 14,
      "name": "Parque de los Dinosaurios",
      "href": "#",
      "imageSrc": "https://images.pexels.com/photos/1373604/pexels-photo-1373604.jpeg",
      "imageAlt": "Réplicas de dinosaurios en el parque.",
      "reach": "10k",
      "price": "$15",
      "color": "Verde",
      "coordinates": [-98.6010, -58.3850],
      "address": "Av. Parque 1000, CABA"
    },
    {
      "id": 15,
      "name": "Estadio Municipal",
      "href": "#",
      "imageSrc": "https://images.pexels.com/photos/2062560/pexels-photo-2062560.jpeg",
      "imageAlt": "Eventos deportivos en el Estadio Municipal.",
      "reach": "10k",
      "price": "$20",
      "color": "Gris",
      "coordinates": [-10.6100, -58.3770],
      "address": "Estadio Municipal, CABA"
    }
  ]
  