[
    {
      "id": 1,
      "name": "Parque centenario",
      "Temporada": "#",
      "imageSrc": "https://turismo.buenosaires.gob.ar/sites/turismo/files/parque-centenario-2023-1500x610.jpg",
      "imageAlt": "Vista del Parque centenario.",
      "reach": "10k",
      "price": "Entrada gratuita",
      "tiempo": "Ideal",
      "coordinates": [-34.6038, -58.4347],
      "address": "xxxxxx"
    },
    {
      "id": 2,
      "name": "Jardín Botánico",
      "Temporada": "#",
      "imageSrc": "https://turismo.buenosaires.gob.ar/sites/turismo/files/botanico_jardin-1500x610.jpg",
      "imageAlt": "Flores en el Jardín Botánico.",
      "reach": "10k",
      "price": "$10",
      "tiempo": "Ideal",
      "coordinates": [-34.5872, -58.3842],
      "address": "xxxxxx"
    },
    {
      "id": 3,
      "name": "Museo Nacional de Bellas Artes",
      "Temporada": "#",
      "imageSrc": "https://turismo.buenosaires.gob.ar/sites/turismo/files/museo-nacional-bellas-artes-1500x610-interior.jpg",
      "imageAlt": "Fachada del Museo de Historia.",
      "reach": "10k",
      "price": "$5",
      "tiempo": "Ideal",
      "coordinates": [-34.583986, -58.39297],
      "address": "xxxxx"
    },
    {
      "id": 4,
      "name": "Costanera",
      "Temporada": "#",
      "imageSrc": "https://turismo.buenosaires.gob.ar/sites/turismo/files/patio_grastronomico_costanera_norte_1200_belgrano.jpg",
      "imageAlt": "Playa al atardecer.",
      "reach": "10k",
      "price": "Entrada gratuita",
      "tiempo": "Ideal",
      "coordinates": [-34.61694, -58.35675],
      "address": "xxxxx"
    },
    {
      "id": 5,
      "name": "Reserva Ecológica Costanera Sur",
      "Temporada": "#",
      "imageSrc": "https://lh3.googleusercontent.com/p/AF1QipMFCqRSqFrpHJ0kvkST35Wyj8JH9lprijpU3tVY=s1360-w1360-h1020",
      "imageAlt": "Reserva Ecológica Costanera Sur",
      "reach": "10k",
      "price": "$50",
      "tiempo": "Ideal",
      "coordinates": [-34.6038, -58.3525],
      "address": "xxxxx"
    },
    {
      "id": 6,
      "name": "Centro Cultural",
      "Temporada": "#",
      "imageSrc": "https://encrypted-tbn2.gstatic.com/licensed-image?q=tbn:ANd9GcQWZVPSdiUcbkzJnuSgMEjUNhBc-x45x5HHCTvO1a9j3YmnZ5doe4KWB3eSILvLf06o4tegOL0N5qf0EYdzNwX-AHJPPaTDevnxHmEJow",
      "imageAlt": "Eventos en el Centro Cultural.",
      "reach": "10k",
      "price": "$150",
      "tiempo": "Ideal",
      "coordinates": [ -34.6033, -58.3694],
      "address": "xxxxx"
    },
    {
      "id": 7,
      "name": "Cascada de la Alegría",
      "Temporada": "#",
      "imageSrc": "https://images.pexels.com/photos/733865/pexels-photo-733865.jpeg",
      "imageAlt": "Cascada en el Parque Natural.",
      "reach": "10k",
      "price": "Entrada gratuita",
      "tiempo": "Ideal",
      "coordinates": [-66.5900, -58.4000],
      "address": "Av. de los Lagos 3000, CABA"
    },
    {
      "id": 8,
      "name": "Zona Arqueológica",
      "Temporada": "#",
      "imageSrc": "https://images.pexels.com/photos/1625246/pexels-photo-1625246.jpeg",
      "imageAlt": "Ruinas en la Zona Arqueológica.",
      "reach": "10k",
      "price": "$12",
      "tiempo": "Ideal",
      "coordinates": [-9.6031, -58.3813],
      "address": "Av. Belgrano 890, CABA"
    },
    {
      "id": 9,
      "name": "Plaza Mayor",
      "Temporada": "#",
      "imageSrc": "https://images.pexels.com/photos/1704125/pexels-photo-1704125.jpeg",
      "imageAlt": "Actividades en la Plaza Mayor.",
      "reach": "10k",
      "price": "Entrada gratuita",
      "tiempo": "Ideal",
      "coordinates": [-46.6033, -58.3816],
      "address": "Plaza de Mayo, CABA"
    },
    {
      "id": 10,
      "name": "Mirador del Cielo",
      "Temporada": "#",
      "imageSrc": "https://images.pexels.com/photos/1600790/pexels-photo-1600790.jpeg",
      "imageAlt": "Vista panorámica desde el mirador.",
      "reach": "10k",
      "price": "$8",
      "tiempo": "Ideal",
      "coordinates": [-13.6100, -58.3840],
      "address": "Mirador Buenos Aires, CABA"
    },
    {
      "id": 11,
      "name": "Parque de Atracciones",
      "Temporada": "#",
      "imageSrc": "https://images.pexels.com/photos/1588606/pexels-photo-1588606.jpeg",
      "imageAlt": "Diversión en el Parque de Atracciones.",
      "reach": "10k",
      "price": "$30",
      "tiempo": "Ideal",
      "coordinates": [-42.6150, -58.3800],
      "address": "Av. Rivadavia 1234, CABA"
    },
    {
      "id": 12,
      "name": "Bosque Encantado",
      "Temporada": "#",
      "imageSrc": "https://images.pexels.com/photos/1603074/pexels-photo-1603074.jpeg",
      "imageAlt": "Senderos en el Bosque Encantado.",
      "reach": "10k",
      "price": "Entrada gratuita",
      "tiempo": "Ideal",
      "coordinates": [-19.6055, -58.3790],
      "address": "Bosque de Palermo, CABA"
    },
    {
      "id": 13,
      "name": "Acantilados del Océano",
      "Temporada": "#",
      "imageSrc": "https://images.pexels.com/photos/2863534/pexels-photo-2863534.jpeg",
      "imageAlt": "Acantilados sobre el océano.",
      "reach": "10k",
      "price": "$10",
      "tiempo": "Ideal",
      "coordinates": [-59.6050, -58.3860],
      "address": "Av. Costanera Sur 2500, CABA"
    },
    {
      "id": 14,
      "name": "Parque de los Dinosaurios",
      "Temporada": "#",
      "imageSrc": "https://images.pexels.com/photos/1373604/pexels-photo-1373604.jpeg",
      "imageAlt": "Réplicas de dinosaurios en el parque.",
      "reach": "10k",
      "price": "$15",
      "tiempo": "Ideal",
      "coordinates": [-98.6010, -58.3850],
      "address": "Av. Parque 1000, CABA"
    },
    {
      "id": 15,
      "name": "Estadio Municipal",
      "Temporada": "#",
      "imageSrc": "https://images.pexels.com/photos/2062560/pexels-photo-2062560.jpeg",
      "imageAlt": "Eventos deportivos en el Estadio Municipal.",
      "reach": "10k",
      "price": "$20",
      "tiempo": "Ideal",
      "coordinates": [-10.6100, -58.3770],
      "address": "Estadio Municipal, CABA"
    }
  ]
  